City_ID,City,Lat,Lng,Max Temp,Humidity,Cloudiness,Wind Speed,Country,Date
0,port elizabeth,-33.918,25.5701,24.16,88,40,6.17,ZA,1675789308
1,mahebourg,-20.4081,57.7,27.16,74,40,5.66,MU,1675789324
2,port macquarie,-31.4333,152.9167,20.04,78,37,1.25,AU,1675789325
3,albany,42.6001,-73.9662,2.8,46,55,2.24,US,1675789232
4,sobolevo,54.4299,31.8996,-12.74,98,17,1.2,RU,1675789336
5,provideniya,64.3833,-173.3,-26.29,93,74,1.54,RU,1675789336
6,swellendam,-34.0226,20.4417,21.23,72,100,5.18,ZA,1675789337
7,lavrentiya,65.5833,-171.0,-25.38,91,100,1.82,RU,1675789337
8,bluff,-46.6,168.3333,10.45,77,84,12.29,NZ,1675789338
9,diebougou,10.9667,-3.25,37.19,10,93,1.21,BF,1675789338
10,punta arenas,-53.15,-70.9167,14.06,51,75,4.63,CL,1675789333
11,vrises,35.492,23.8899,6.77,84,100,7.11,GR,1675789339
12,vidim,56.4088,103.1106,-22.56,100,99,1.2,RU,1675789340
13,hobyo,5.3505,48.5268,25.02,78,23,6.16,SO,1675789341
14,talnakh,69.4865,88.3972,-20.85,98,99,2.6,RU,1675789351
15,marinette,45.1,-87.6307,4.05,70,100,4.63,US,1675789352
16,hilo,19.7297,-155.09,22.93,91,2,0.89,US,1675789352
17,hasaki,35.7333,140.8333,8.22,84,100,10.4,JP,1675789360
18,marzuq,14.4,46.4667,18.83,48,38,3.39,YE,1675789362
19,akyab,20.15,92.9,21.07,72,0,4.38,MM,1675789372
20,sept-iles,50.2001,-66.3821,-8.3,83,75,5.14,CA,1675789376
21,actopan,20.2667,-98.9333,20.95,17,5,1.7,MX,1675789377
22,jakar,27.5492,90.7525,1.37,97,100,1.14,BT,1675789378
23,flinders,-34.5833,150.8552,21.21,90,100,0.89,AU,1675789379
24,tuktoyaktuk,69.4541,-133.0374,-34.0,68,100,0.0,CA,1675789380
25,nokaneng,-19.6667,22.2667,26.59,52,92,3.29,BW,1675789381
26,bereznik,62.8551,42.7072,-4.68,95,100,4.23,RU,1675789382
27,jamestown,42.097,-79.2353,8.08,52,0,6.69,US,1675789158
28,bredasdorp,-34.5322,20.0403,21.57,67,100,5.07,ZA,1675789385
29,hithadhoo,-0.6,73.0833,27.74,67,100,3.96,MV,1675789389
30,atuona,-9.8,-139.0333,25.87,74,6,7.39,PF,1675789389
31,butaritari,3.0707,172.7902,27.3,80,100,10.18,KI,1675789390
32,portland,45.5234,-122.6762,9.13,85,100,6.26,US,1675788893
33,praia da vitoria,38.7333,-27.0667,13.75,71,75,8.97,PT,1675789390
34,benghazi,32.1167,20.0667,13.25,55,93,8.78,LY,1675789391
35,geraldton,-28.7667,114.6,22.23,83,40,6.17,AU,1675789391
36,luba,3.4568,8.5547,29.94,78,71,4.29,GQ,1675789394
37,rikitea,-23.1203,-134.9692,26.04,73,44,5.38,PF,1675789401
38,castro,-24.7911,-50.0119,26.01,53,65,1.25,BR,1675789403
39,airai,-8.9266,125.4092,16.35,93,75,0.89,TL,1675789404
40,camacha,33.0833,-16.3333,14.68,63,40,7.72,PT,1675789410
41,kaniama,-7.5667,24.1833,21.47,87,64,2.27,CD,1675789414
42,ilulissat,69.2167,-51.1,-22.99,70,75,2.57,GL,1675789415
43,chuy,-33.6971,-53.4616,29.56,41,3,4.01,UY,1675789415
44,ushuaia,-54.8,-68.3,11.81,54,40,5.14,AR,1675789415
45,zabid,14.1951,43.3152,26.65,59,20,1.72,YE,1675789416
46,hobart,-42.8794,147.3294,13.92,68,100,3.09,AU,1675789256
47,katsuura,35.1333,140.3,10.62,84,100,6.54,JP,1675789416
48,port augusta,-32.5,137.7667,24.03,28,0,2.32,AU,1675789423
49,dikson,73.5069,80.5464,-28.1,95,81,6.91,RU,1675789426
50,umm bab,25.2142,50.8072,20.69,60,29,6.68,QA,1675789426
51,haines junction,60.7522,-137.5108,-8.03,93,100,0.0,CA,1675789426
52,cape town,-33.9258,18.4232,22.28,77,20,9.26,ZA,1675789228
53,busselton,-33.65,115.3333,16.5,92,0,5.19,AU,1675789427
54,aklavik,68.2191,-135.0107,-31.0,76,100,2.06,CA,1675789427
55,fortuna,40.5982,-124.1573,6.63,96,0,3.09,US,1675789430
56,banjar,-8.19,114.9675,24.53,93,100,1.64,ID,1675789432
57,husavik,66.0449,-17.3389,-3.28,60,96,13.73,IS,1675789433
58,constitucion,-35.3333,-72.4167,21.93,53,3,2.02,CL,1675789433
59,humaita,-7.5061,-63.0208,25.66,89,97,1.52,BR,1675789434
60,haapsalu,58.9431,23.5414,1.97,90,100,5.42,EE,1675789434
61,springfield,37.2153,-93.2982,6.23,89,100,2.57,US,1675789334
62,sovetskaya gavan,48.9723,140.2878,-20.37,92,22,2.21,RU,1675789435
63,sao joao da barra,-21.6403,-41.0511,31.05,75,98,2.43,BR,1675789435
64,qaanaaq,77.484,-69.3632,-30.22,69,98,3.13,GL,1675789436
65,arraial do cabo,-22.9661,-42.0278,30.98,70,40,4.12,BR,1675789436
66,yellowknife,62.456,-114.3525,-18.71,78,100,3.09,CA,1675789201
67,faanui,-16.4833,-151.75,26.64,78,28,5.48,PF,1675789437
68,upernavik,72.7868,-56.1549,-25.84,94,99,3.09,GL,1675789437
69,saint-philippe,-21.3585,55.7679,27.77,84,62,6.0,RE,1675789438
70,severo-kurilsk,50.6789,156.125,-5.26,67,80,6.15,RU,1675789438
71,vao,-22.6667,167.4833,25.99,70,81,5.06,NC,1675789439
72,dingle,10.9995,122.6711,23.25,92,100,3.47,PH,1675789439
73,vardo,70.3705,31.1107,1.99,75,0,19.03,NO,1675789440
74,vostok,46.4856,135.8833,-18.86,99,100,1.98,RU,1675789440
75,mahibadhoo,3.7833,72.9667,27.14,75,70,4.82,MV,1675789441
76,kesova gora,57.5836,37.2922,-11.69,95,44,3.77,RU,1675789442
77,carnarvon,-24.8667,113.6333,24.79,71,3,9.7,AU,1675789400
78,east london,-33.0153,27.9116,23.52,88,20,3.6,ZA,1675789444
79,vaini,-21.2,-175.2,24.09,100,100,3.09,TO,1675789445
80,hermanus,-34.4187,19.2345,21.56,74,100,6.0,ZA,1675789446
81,ponta do sol,32.6667,-17.1,18.17,59,43,2.85,PT,1675789447
82,yuzhnyy,53.2542,83.6936,-8.79,86,75,3.0,RU,1675789448
83,maceio,-9.6658,-35.7353,30.69,51,40,5.14,BR,1675788966
84,iqaluit,63.7506,-68.5145,-32.95,67,40,2.57,CA,1675789327
85,mbandaka,0.0487,18.2603,27.95,51,90,1.97,CD,1675789448
86,klaksvik,62.2266,-6.589,7.51,81,83,19.86,FO,1675789449
87,puerto ayora,-0.7393,-90.3518,29.98,88,25,4.47,EC,1675789449
88,augusto correa,-1.0217,-46.635,28.77,69,92,3.28,BR,1675789451
89,kyra,49.5776,111.9753,-19.68,92,7,1.76,RU,1675789452
90,esperance,-33.8667,121.9,19.2,82,25,4.59,AU,1675789452
91,kudahuvadhoo,2.6708,72.8944,27.32,75,90,4.86,MV,1675789456
92,muros,42.7762,-9.0603,12.83,52,0,8.94,ES,1675789458
93,obama,35.4958,135.746,5.53,82,83,3.99,JP,1675789461
94,meulaboh,4.1363,96.1285,24.96,83,94,2.09,ID,1675789462
95,zhangjiakou,40.81,114.8794,-5.48,72,6,2.69,CN,1675789462
96,ahipara,-35.1667,173.1667,18.02,78,97,2.29,NZ,1675789466
97,kodiak,57.79,-152.4072,-2.27,69,0,4.63,US,1675789468
98,narsaq,60.9167,-46.05,-18.88,61,81,3.83,GL,1675789468
99,taoudenni,22.6783,-3.9836,26.63,13,78,4.68,ML,1675789468
100,pangnirtung,66.1451,-65.7125,-33.0,62,20,2.06,CA,1675789469
101,yulara,-25.2406,130.9889,27.3,23,0,3.62,AU,1675789469
102,caravelas,-17.7125,-39.2481,30.83,53,52,5.71,BR,1675789472
103,kaitangata,-46.2817,169.8464,12.09,59,19,3.97,NZ,1675789474
104,isetskoye,56.4858,65.3226,-20.9,100,71,1.96,RU,1675789474
105,kysyl-syr,63.8986,122.7617,-43.57,100,100,0.34,RU,1675789475
106,turayf,31.6725,38.6637,5.14,75,75,4.12,SA,1675789386
107,tessalit,20.1986,1.0114,30.61,10,100,5.58,ML,1675789481
108,saskylakh,71.9167,114.0833,-35.02,100,100,1.01,RU,1675789482
109,isangel,-19.55,169.2667,25.75,86,100,1.86,VU,1675789482
110,tasiilaq,65.6145,-37.6368,-15.91,58,51,6.35,GL,1675789483
111,kruisfontein,-34.0033,24.7314,20.44,75,99,5.35,ZA,1675789483
112,ambon,-3.6954,128.1814,25.08,94,40,2.57,ID,1675789484
113,norman wells,65.282,-126.8329,-23.98,77,100,0.0,CA,1675789484
114,pisco,-13.7,-76.2167,25.01,88,0,3.6,PE,1675789485
115,colares,38.7992,-9.4469,15.18,55,20,8.05,PT,1675789485
116,port alfred,-33.5906,26.891,22.32,89,89,1.79,ZA,1675789374
117,mar del plata,-38.0023,-57.5575,26.08,71,75,6.17,AR,1675789201
118,palmerston,-12.486,130.9833,27.99,83,46,3.09,AU,1675789243
119,torbay,47.6666,-52.7314,-4.68,81,100,10.8,CA,1675789248
120,angoche,-16.2325,39.9086,26.77,83,100,3.66,MZ,1675789410
121,nantucket,41.2835,-70.0995,2.08,74,100,8.75,US,1675789372
122,kimbe,-5.5502,150.1429,24.4,96,100,1.77,PG,1675789486
123,avarua,-21.2078,-159.775,26.03,89,75,2.06,CK,1675789487
124,beira,-19.8436,34.8389,30.05,70,40,5.81,MZ,1675789487
125,clyde river,70.4692,-68.5914,-33.87,68,75,2.06,CA,1675789488
126,tawang,27.5833,91.8667,-1.49,97,100,0.23,IN,1675789488
127,port-gentil,-0.7193,8.7815,27.98,78,20,3.6,GA,1675789489
128,coffs harbour,-30.3,153.1333,19.98,88,75,0.0,AU,1675789489
129,port hardy,50.6996,-127.4199,5.1,93,75,1.03,CA,1675789490
130,ust-nera,64.5667,143.2,-40.04,100,97,0.51,RU,1675789490
131,rio grande,-32.035,-52.0986,34.06,45,5,4.66,BR,1675789491
132,kulu,39.0951,33.0799,-5.84,80,100,4.83,TR,1675789491
133,chokurdakh,70.6333,147.9167,-40.85,100,99,1.67,RU,1675789492
134,lebu,-37.6167,-73.65,18.45,65,0,8.18,CL,1675789492
135,luderitz,-26.6481,15.1594,22.82,66,0,12.59,NA,1675789492
136,tezu,27.9167,96.1667,13.68,90,88,2.02,IN,1675789493
137,aleksandrovskoye,44.7142,43.0008,-5.05,96,100,3.03,RU,1675789493
138,betsiamites,48.9413,-68.646,-7.95,86,75,2.35,CA,1675789494
139,kapaa,22.0752,-159.319,24.18,92,100,5.14,US,1675789494
140,san,13.3034,-4.8956,36.41,8,99,2.62,ML,1675789476
141,mitsamiouli,-11.3847,43.2844,27.24,78,99,3.02,KM,1675789495
142,roebourne,-20.7833,117.1333,30.64,59,9,3.85,AU,1675789495
143,sidi ali,36.0998,0.4206,11.49,71,79,3.92,DZ,1675789496
144,college,64.8569,-147.8028,-14.33,79,100,2.06,US,1675789496
145,le port,-20.9373,55.2919,28.0,80,31,2.37,RE,1675789497
146,new norfolk,-42.7826,147.0587,13.72,90,42,1.09,AU,1675789497
147,mataura,-46.1927,168.8643,10.27,66,79,2.86,NZ,1675789498
148,mackay,-21.15,149.2,25.93,83,92,8.95,AU,1675789499
149,andenes,69.3143,16.1194,4.99,60,75,14.4,NO,1675789504
150,saint george,37.1041,-113.5841,7.36,61,0,2.57,US,1675789321
151,nyurba,63.2842,118.3319,-39.52,100,100,0.57,RU,1675789504
152,pochutla,15.7432,-96.4661,30.9,35,0,2.63,MX,1675789505
153,robertsport,6.7533,-11.3686,26.89,77,51,5.58,LR,1675789509
154,langenthal,47.2153,7.7961,1.69,72,8,1.87,CH,1675789512
155,garissa,-0.4536,39.6401,31.8,31,43,3.52,KE,1675789513
156,sanandaj,35.3144,46.9923,3.01,56,75,7.2,IR,1675789514
157,rabo de peixe,37.8,-25.5833,12.73,88,40,11.32,PT,1675789514
158,hay river,60.8156,-115.7999,-18.01,78,75,7.2,CA,1675789527
159,komsomolskiy,40.4272,71.7189,2.4,87,12,2.06,UZ,1675789528
160,petatlan,17.5167,-101.2667,29.89,46,2,1.79,MX,1675789528
161,kalaiya,27.0327,85.0022,16.51,51,1,2.83,NP,1675789529
162,touros,-5.1989,-35.4608,30.31,52,60,7.6,BR,1675789529
163,mezen,65.8522,44.24,-2.99,93,100,5.82,RU,1675789540
164,djenne,13.9061,-4.5533,36.4,8,100,2.83,ML,1675789540
165,juegang,32.3174,121.1855,6.66,88,100,3.35,CN,1675789540
166,khatanga,71.9667,102.5,-43.62,100,70,0.79,RU,1675789541
167,willmar,45.1219,-95.0433,-3.11,74,0,3.6,US,1675789541
168,rognan,67.0953,15.3878,6.14,81,31,5.4,NO,1675789543
169,buenaventura,3.8801,-77.0312,29.91,68,14,2.61,CO,1675789544
170,pierre,44.3683,-100.351,5.15,65,0,5.14,US,1675789544
171,laguna,38.421,-121.4238,10.35,81,0,1.54,US,1675789549
172,san isidro,-12.1167,-77.05,26.77,65,0,6.69,PE,1675789549
173,kinsale,51.7075,-8.5306,8.65,87,75,2.57,IE,1675789551
174,kefalos,36.7453,26.9589,6.12,52,40,13.12,GR,1675789551
175,maniitsoq,65.4167,-52.9,-17.07,91,98,2.74,GL,1675789552
176,beisfjord,68.3751,17.5988,3.36,92,88,6.99,NO,1675789554
177,zhanakorgan,43.9098,67.2495,2.09,61,100,3.66,KZ,1675789554
178,baykit,61.67,96.37,-17.55,98,100,0.75,RU,1675789555
179,cidreira,-30.1811,-50.2056,26.51,62,2,4.47,BR,1675789556
180,jalu,29.0331,21.5482,13.84,45,69,3.22,LY,1675789557
181,longyearbyen,78.2186,15.6401,-4.09,80,75,19.03,SJ,1675789419
182,landeck,47.1301,10.5636,-6.0,96,27,0.49,AT,1675789558
183,shubarkuduk,49.1447,56.4872,-12.44,88,100,5.87,KZ,1675789559
184,nanortalik,60.1432,-45.2371,-12.93,62,6,12.37,GL,1675789560
185,souillac,-20.5167,57.5167,27.21,74,40,5.66,MU,1675789534
186,ambovombe,-25.1667,46.0833,23.23,88,100,2.22,MG,1675789560
187,buala,-8.145,159.5921,26.17,88,100,3.65,SB,1675789561
188,cabo san lucas,22.8909,-109.9124,22.81,66,40,2.06,MX,1675789500
189,tanda,26.55,82.65,17.02,59,0,2.87,IN,1675789562
190,dawlatabad,36.4141,64.9053,9.8,52,60,1.49,AF,1675789563
191,hualmay,-11.0964,-77.6139,25.64,68,11,4.36,PE,1675789565
192,dunedin,-45.8742,170.5036,11.35,72,81,3.82,NZ,1675789363
193,benguela,-12.5763,13.4055,25.77,69,59,3.57,AO,1675789566
194,bethel,41.3712,-73.414,4.54,36,0,3.09,US,1675789567
195,solnechnyy,50.7214,136.6319,-21.44,99,100,1.89,RU,1675789567
196,pedernales,18.0384,-71.744,28.08,55,0,3.45,DO,1675789568
197,ozinki,51.1786,49.6769,-13.65,95,50,5.1,RU,1675789568
198,strezhevoy,60.7333,77.5889,-20.23,99,98,3.17,RU,1675789569
199,naze,28.3667,129.4833,16.51,78,41,5.75,JP,1675789569
200,mahon,39.8885,4.2658,11.31,82,75,12.35,ES,1675789570
201,san jose de guanipa,8.8872,-64.1651,31.97,37,55,5.05,VE,1675789572
202,aykhal,66.0,111.5,-37.42,100,99,1.71,RU,1675789573
203,kefamenanu,-9.4467,124.4781,22.75,91,100,1.27,ID,1675789573
204,qianjiang,30.4151,112.8859,11.54,65,100,0.81,CN,1675789575
205,darnah,32.767,22.6367,12.17,62,88,5.27,LY,1675789578
206,bonawon,9.134,122.9193,25.89,72,100,5.18,PH,1675789578
207,vila franca do campo,37.7167,-25.4333,13.23,76,79,7.04,PT,1675789579
208,coquimbo,-29.9533,-71.3436,21.85,68,0,5.66,CL,1675789579
209,bahia honda,22.9036,-83.1592,27.98,57,8,5.9,CU,1675789576
210,beyneu,45.3167,55.2,1.0,79,100,11.82,KZ,1675789580
211,usinsk,65.9939,57.5281,-14.58,93,100,11.16,RU,1675789581
212,amga,60.8953,131.9608,-37.28,100,100,0.66,RU,1675789582
213,half moon bay,37.4636,-122.4286,12.47,82,20,0.0,US,1675789584
214,tuatapere,-46.1333,167.6833,10.31,86,87,4.85,NZ,1675789584
215,porto velho,-8.7619,-63.9039,26.03,89,40,2.06,BR,1675789403
216,thongwa,16.7619,96.5278,25.09,40,13,3.24,MM,1675789585
217,yarega,63.4354,53.5765,-12.06,93,100,4.05,RU,1675789586
218,zyryanka,65.75,150.85,-36.85,100,97,2.09,RU,1675789587
219,lockhart,28.6194,-81.4426,24.99,54,0,6.17,US,1675789588
220,ostersund,63.1792,14.6357,2.25,93,0,2.57,SE,1675789590
221,homer,59.6425,-151.5483,0.45,92,100,3.58,US,1675789592
222,kroya,-7.6331,109.2461,24.67,89,100,0.46,ID,1675789593
223,ribeira grande,38.5167,-28.7,14.32,54,75,8.23,PT,1675789594
224,saldanha,-33.0117,17.9442,24.03,88,100,10.68,ZA,1675789596
225,mizdah,31.4451,12.9801,12.27,45,73,6.61,LY,1675789597
226,fomboni,-12.28,43.7425,27.39,72,100,1.74,KM,1675789598
227,bengkulu,-3.8004,102.2655,24.94,86,96,3.66,ID,1675789559
228,dzerzhinsk,56.2389,43.4631,-10.1,92,75,1.0,RU,1675789599
229,riyadh,24.6877,46.7219,20.08,26,88,5.89,SA,1675789544
230,bathsheba,13.2167,-59.5167,27.34,69,75,8.23,BB,1675789599
231,ankang,32.68,109.0172,9.85,68,100,3.12,CN,1675789600
232,banamba,13.55,-7.45,36.01,8,98,2.65,ML,1675789600
233,pointe-noire,-4.7761,11.8635,27.06,80,80,3.81,CG,1675789601
234,garowe,8.4054,48.4845,24.12,52,56,7.62,SO,1675789601
235,ulaanbaatar,47.9077,106.8832,-25.93,76,9,2.0,MN,1675789343
236,el higo,21.7667,-98.4667,26.25,56,80,0.96,MX,1675789601
237,lima,-12.0432,-77.0282,26.14,65,0,6.17,PE,1675789142
238,beringovskiy,63.05,179.3167,-28.03,95,100,3.42,RU,1675789602
239,cherskiy,68.75,161.3,-35.75,98,100,2.26,RU,1675789603
240,tiksi,71.6872,128.8694,-32.22,99,100,1.65,RU,1675789588
241,tucuma,-0.1833,-50.05,27.71,77,88,3.05,BR,1675789603
242,antofagasta,-23.65,-70.4,23.6,70,86,4.11,CL,1675789534
243,acajutla,13.5928,-89.8275,29.99,44,71,3.18,SV,1675789604
244,poronaysk,49.2167,143.1167,-22.78,99,99,1.41,RU,1675789604
245,acurenam,1.0322,10.6488,22.18,92,41,1.75,GQ,1675789605
246,panaba,21.2833,-88.2667,29.1,51,1,6.37,MX,1675789605
247,leningradskiy,69.3833,178.4167,-31.51,97,100,2.82,RU,1675789504
248,kerema,-7.9631,145.7785,24.72,86,100,1.16,PG,1675789606
249,ankazoabo,-22.2833,44.5167,22.44,79,100,2.14,MG,1675789606
250,the valley,18.217,-63.0578,27.12,88,40,5.66,AI,1675789607
251,maldonado,-34.6667,-54.9167,32.66,28,5,2.81,UY,1675789607
252,vrangel,42.7297,133.0839,-6.01,60,100,2.46,RU,1675789607
253,songjianghe,42.1859,127.479,-16.05,98,75,0.97,CN,1675789608
254,lagoa,39.05,-27.9833,13.03,60,73,9.27,PT,1675789608
255,chikwawa,-16.0335,34.8009,24.97,86,100,1.0,MW,1675789608
256,muisne,0.6,-80.0333,27.98,71,21,3.75,EC,1675789609
257,oranjemund,-28.55,16.4333,18.91,91,32,8.82,NA,1675789609
258,thompson,55.7435,-97.8558,-20.54,93,88,1.77,CA,1675789610
259,pandan niog,6.2282,120.5631,26.73,75,100,2.0,PH,1675789610
260,skibbereen,51.55,-9.2667,9.5,81,72,1.49,IE,1675789610
261,rawson,-43.3002,-65.1023,27.71,29,31,5.07,AR,1675789611
262,tchibanga,-2.85,11.0333,23.85,92,69,1.57,GA,1675789412
263,turka,49.1541,23.0297,-4.56,97,100,1.01,UA,1675789611
264,agadir,30.4202,-9.5982,18.25,57,0,4.52,MA,1675789612
265,palamos,41.8484,3.1291,10.06,59,100,5.36,ES,1675789612
266,karratha,-20.7377,116.8463,30.54,59,22,3.91,AU,1675789613
267,wekiva springs,28.6986,-81.4256,25.05,53,0,6.17,US,1675789613
268,auki,-8.7676,160.7034,25.17,91,100,2.12,SB,1675789613
269,pangai,-19.8,-174.35,26.56,78,100,8.03,TO,1675789614
270,laramie,41.3114,-105.5911,-1.93,54,0,3.09,US,1675789614
271,talas,38.6908,35.5538,-4.63,74,75,1.54,TR,1675789615
272,san anselmo,37.9747,-122.5616,11.88,86,0,0.0,US,1675789615
273,mehamn,71.0357,27.8492,2.97,65,40,19.03,NO,1675789546
274,gat,31.61,34.7642,9.38,100,90,9.94,IL,1675789616
275,bukama,-9.2,25.85,20.86,96,88,2.22,CD,1675789616
276,cairns,-16.9167,145.7667,26.97,87,93,2.57,AU,1675789616
277,pevek,69.7008,170.3133,-31.11,98,100,1.15,RU,1675789559
278,ambilobe,-13.2,49.05,23.27,96,100,0.23,MG,1675789617
279,muromtsevo,56.3724,75.2418,-19.21,100,96,1.52,RU,1675789618
280,north bend,43.4065,-124.2243,10.04,87,100,4.63,US,1675789621
281,buchanan,5.8808,-10.0467,28.03,74,95,5.1,LR,1675789622
282,kemijarvi,66.7131,27.4306,1.79,95,100,3.71,FI,1675789623
283,alofi,-19.0595,-169.9187,23.94,100,100,2.06,NU,1675789624
284,victoria,22.2855,114.1577,20.54,92,49,4.02,HK,1675789625
285,kungurtug,50.5994,97.5228,-23.96,98,56,0.9,RU,1675789625
286,lorengau,-2.0226,147.2712,25.99,90,100,6.1,PG,1675789386
287,brae,60.3964,-1.353,6.56,72,13,9.87,GB,1675789626
288,paidha,2.4167,30.9855,23.46,31,76,2.66,UG,1675789628
289,lodja,-3.4833,23.4333,26.27,56,75,0.71,CD,1675789629
290,sao filipe,14.8961,-24.4956,20.61,64,0,6.55,CV,1675789515
291,georgetown,5.4112,100.3354,23.98,86,98,3.56,MY,1675789630
292,vestmanna,62.1564,-7.1664,6.51,81,100,10.8,FO,1675789630
293,port keats,-14.25,129.55,27.55,71,5,3.64,AU,1675789631
294,high level,58.5169,-117.136,-2.27,68,2,5.03,CA,1675789632
295,tsogni,-2.7942,10.0988,26.74,73,51,2.29,GA,1675789633
296,prince rupert,54.3161,-130.3201,0.86,73,97,3.14,CA,1675789635
297,wyndham,37.6985,-77.6125,11.18,56,0,3.6,US,1675789636
298,lompoc,34.6391,-120.4579,15.43,68,0,2.14,US,1675789636
299,nikolskoye,59.7035,30.7861,-2.06,92,89,4.0,RU,1675789637
300,san carlos de bariloche,-41.1456,-71.3082,24.58,18,0,4.12,AR,1675789489
301,skovorodino,53.9833,123.9167,-30.7,100,100,1.12,RU,1675789637
302,marsh harbour,26.5412,-77.0636,21.96,62,5,8.07,BS,1675789605
303,omboue,-1.5746,9.2618,27.26,75,91,2.92,GA,1675789638
304,codrington,-38.2667,141.9667,12.44,87,58,3.75,AU,1675789638
305,sehithwa,-20.4667,22.7167,26.19,53,85,1.71,BW,1675789640
306,tilichiki,60.4667,166.1,-33.38,93,33,4.1,RU,1675789641
307,aitape,-3.1374,142.3475,24.41,95,100,2.41,PG,1675789642
308,ust-omchug,61.15,149.6333,-39.13,98,87,1.6,RU,1675789642
309,hofn,64.2539,-15.2082,1.67,77,99,11.62,IS,1675789433
310,atbasar,51.8,68.3333,-16.5,99,85,0.92,KZ,1675789643
311,limbang,4.75,115.0,24.06,95,100,0.94,MY,1675789643
312,tynda,55.1667,124.7167,-37.61,100,70,1.1,RU,1675789644
313,wasilla,61.5814,-149.4394,-4.8,78,0,5.14,US,1675789361
314,bellegarde-sur-valserine,46.1079,5.8242,5.62,74,1,1.3,FR,1675789645
315,yerofey pavlovich,53.9667,121.9667,-27.84,97,99,1.45,RU,1675789645
316,srednekolymsk,67.45,153.6833,-34.33,98,100,2.41,RU,1675789646
317,edd,13.9297,41.6925,26.26,65,26,1.9,ER,1675789646
318,lethem,3.3803,-59.7968,33.56,42,59,4.89,GY,1675789647
319,yumen,40.2833,97.2,-2.43,51,100,1.53,CN,1675789647
320,dubbo,-32.25,148.6167,22.07,64,1,5.14,AU,1675789649
321,petrolia,42.8668,-82.1498,6.56,85,97,8.87,CA,1675789616
322,zhezkazgan,47.8043,67.7144,-20.01,77,75,3.0,KZ,1675789649
323,bobo dioulasso,11.1771,-4.2979,36.25,20,0,3.6,BF,1675789568
324,cerro de pasco,-10.6833,-76.2667,9.98,56,55,4.9,PE,1675789650
325,danilovka,50.3557,44.1168,-11.27,90,14,5.85,RU,1675789651
326,manjeshwar,12.7194,74.8861,26.53,76,40,3.55,IN,1675789651
327,coihaique,-45.5752,-72.0662,23.34,46,40,4.12,CL,1675789651
328,kununurra,-15.7667,128.7333,25.99,78,1,3.6,AU,1675789652
329,tarko-sale,64.9225,77.785,-27.21,100,57,3.88,RU,1675789652
330,iraquara,-12.2486,-41.6194,30.27,36,46,2.98,BR,1675789653
331,tandalti,13.0167,31.8667,24.31,13,10,5.24,SD,1675789653
332,puerto escondido,15.85,-97.0667,31.46,66,0,2.06,MX,1675789654
333,dwarka,22.2394,68.9678,22.09,62,5,4.17,IN,1675789654
334,deputatskiy,69.3,139.9,-43.6,99,59,2.05,RU,1675789654
335,paracuru,-3.41,-39.0306,26.17,82,100,4.51,BR,1675789655
336,irshava,48.3167,23.0385,-5.78,92,33,1.95,UA,1675789655
337,faya,18.3851,42.4509,14.29,75,42,2.52,SA,1675789655
338,qaqortoq,60.7167,-46.0333,-14.65,53,41,7.87,GL,1675789656
339,tari,12.4086,4.4914,33.5,9,100,4.45,NG,1675789656
340,vilyuysk,63.7553,121.6247,-40.4,100,99,0.4,RU,1675789657
341,khor,47.8861,134.9464,-22.84,100,92,3.39,RU,1675789658
342,amambai,-23.1042,-55.2258,30.92,43,36,0.25,BR,1675789658
343,ponta delgada,37.7333,-25.6667,13.4,88,40,11.32,PT,1675789447
344,asau,46.4333,26.4,-3.49,96,100,1.46,RO,1675789659
345,saint-pierre,-21.3393,55.4781,27.82,74,20,5.66,RE,1675789569
346,omsukchan,62.5333,155.8,-39.11,99,99,1.88,RU,1675789659
347,barrow,71.2906,-156.7887,-23.99,77,100,4.63,US,1675789487
348,palu,-0.8917,119.8707,23.93,95,98,0.58,ID,1675789660
349,sola,-13.8833,167.55,27.81,74,96,5.39,VU,1675789660
350,arrecife,28.963,-13.5477,16.99,67,75,3.6,ES,1675789661
351,vila velha,-20.3297,-40.2925,30.97,70,20,7.72,BR,1675789661
352,olivenza,38.6832,-7.103,12.48,69,72,4.41,ES,1675789661
353,ixtapa,20.7,-105.2,22.57,68,20,0.0,MX,1675789662
354,tyukhtet,56.5389,89.3011,-7.97,92,100,3.28,RU,1675789662
355,dezful,32.3811,48.4058,14.01,49,35,3.96,IR,1675789662
356,port pirie,-33.1833,138.0167,24.36,33,0,4.13,AU,1675789663
357,kailua,21.4022,-157.7394,23.99,88,75,6.17,US,1675789490
358,makasar,-5.14,119.4221,25.03,78,20,0.51,ID,1675789664
359,champerico,14.3,-91.9167,34.3,53,38,3.16,GT,1675789664
360,sarh,9.1429,18.3923,32.79,10,16,1.94,TD,1675789666
361,collingwood,44.4834,-80.2164,3.94,84,98,11.98,CA,1675789667
362,okhotsk,59.3833,143.3,-24.47,88,99,4.36,RU,1675789667
363,kiama,-34.6833,150.8667,22.22,92,100,3.13,AU,1675789515
364,qeshm,26.9581,56.2719,18.93,65,24,2.67,IR,1675789668
365,muravlenko,63.7898,74.523,-25.86,100,41,3.9,RU,1675789668
366,cayenne,4.9333,-52.3333,30.02,66,75,7.2,GF,1675789444
367,astana,51.1801,71.446,-23.03,84,75,1.0,KZ,1675789629
368,thunder bay,48.4001,-89.3168,-4.7,85,35,5.86,CA,1675789680
369,leh,34.1667,77.5833,-18.19,67,15,1.51,IN,1675789680
370,bage,-31.3314,-54.1069,35.88,26,75,3.6,BR,1675789444
371,sitka,57.0531,-135.33,-0.06,86,40,1.54,US,1675789607
372,sisimiut,66.9395,-53.6735,-19.34,94,100,2.84,GL,1675789681
373,santa cruz,-17.8,-63.1667,26.23,77,97,4.25,BO,1675789681
374,grindavik,63.8424,-22.4338,-2.03,93,75,13.38,IS,1675789664
375,paamiut,61.994,-49.6678,-14.8,81,100,3.08,GL,1675789682
376,omsk,55.0,73.4,-18.95,77,0,2.0,RU,1675789682
377,libreville,0.3925,9.4537,27.65,73,64,3.83,GA,1675789634
378,kommunar,59.6206,30.39,-2.26,92,85,4.59,RU,1675789683
379,desaguadero,-16.5656,-69.0417,7.65,82,100,1.46,PE,1675789684
380,ishigaki,24.3448,124.1572,20.09,80,100,7.43,JP,1675789685
381,aiken,33.5835,-81.5998,19.12,34,0,4.12,US,1675789686
382,anadyr,64.75,177.4833,-28.72,76,40,3.0,RU,1675789649
383,mantua,45.1667,10.7833,4.58,69,5,1.99,IT,1675789687
384,petropavlivka,48.4564,36.4367,-5.93,81,100,8.07,UA,1675789687
385,roma,43.2128,-75.4557,5.96,56,0,5.66,US,1675789396
386,salumbar,24.1333,74.05,19.47,19,3,2.79,IN,1675789688
387,palenque,17.5167,-91.9667,26.09,65,0,5.66,MX,1675789689
388,bubaque,11.2833,-15.8333,24.6,64,38,6.62,GW,1675789690
389,asfi,32.2994,-9.2372,15.16,70,3,4.88,MA,1675789691
390,nianzishan,47.5167,122.8833,-17.77,87,9,2.37,CN,1675789692
391,el fuerte,26.4189,-108.6194,20.26,28,93,1.44,MX,1675789692
392,atar,20.5169,-13.0499,24.74,13,31,6.94,MR,1675789504
393,singarayakonda,15.25,80.0333,23.41,73,55,3.85,IN,1675789693
394,westport,41.1415,-73.3579,5.24,47,0,2.57,US,1675789661
395,bambous virieux,-20.3428,57.7575,26.79,79,41,6.72,MU,1675789695
396,aden,12.7794,45.0367,24.95,68,15,4.45,YE,1675789696
397,bridlington,54.0831,-0.1919,8.27,82,81,3.82,GB,1675789697
398,kiunga,-6.1219,141.2906,22.92,99,100,1.03,PG,1675789697
399,ardabil,38.2498,48.2933,1.9,60,39,6.39,IR,1675789697
400,taltal,-25.4,-70.4833,23.63,70,26,3.44,CL,1675789430
401,chipinge,-20.1883,32.6236,17.56,89,100,1.53,ZW,1675789698
402,male,4.1748,73.5089,27.97,83,75,4.12,MV,1675789698
403,puerto baquerizo moreno,-0.9,-89.6,25.86,77,43,3.26,EC,1675789699
404,lakes entrance,-37.8811,147.981,14.53,89,17,1.29,AU,1675789670
405,santa fe,-31.6333,-60.7,38.9,23,0,2.68,AR,1675789700
406,fairmont,39.4851,-80.1426,16.61,40,100,1.34,US,1675789701
407,itarema,-2.9248,-39.9167,29.14,66,100,5.75,BR,1675789702
408,shetpe,44.1667,52.1167,4.64,65,100,8.26,KZ,1675789702
409,agaro,7.85,36.65,21.32,30,62,0.8,ET,1675789706
410,batagay-alyta,67.8006,130.4114,-38.53,99,98,1.01,RU,1675789707
411,malakal,9.5334,31.6605,29.8,11,5,2.78,SS,1675789707
412,lahat,-3.8,103.5333,23.83,89,100,0.73,ID,1675789707
413,saquena,-4.6667,-73.5167,25.06,82,99,0.3,PE,1675789708
414,elko,41.0002,-115.5012,-6.31,79,100,1.34,US,1675789708
415,brigantine,39.4101,-74.3646,6.78,70,0,3.6,US,1675789709
416,moerai,-22.4333,-151.3333,26.14,78,50,6.15,PF,1675789710
417,pimentel,-6.8367,-79.9342,29.16,54,0,3.6,PE,1675789710
418,jizan,17.3333,42.6667,27.05,65,17,4.28,SA,1675789710
419,annapolis,38.9785,-76.4922,8.08,67,0,4.12,US,1675789707
420,dhidhdhoo,6.8833,73.1,27.07,71,75,4.45,MV,1675789689
421,vestmannaeyjar,63.4427,-20.2734,0.55,93,100,11.83,IS,1675789553
422,teahupoo,-17.8333,-149.2667,22.98,70,44,4.18,PF,1675789712
423,virginia beach,36.8529,-75.978,12.25,58,40,4.12,US,1675789712
424,ninh binh,20.2539,105.975,20.42,94,100,2.57,VN,1675789713
425,alice springs,-23.7,133.8833,25.75,69,40,0.0,AU,1675789714
426,bairiki,1.3292,172.9752,28.0,78,20,7.2,KI,1675789716
427,havoysund,70.9963,24.6622,2.13,72,75,20.34,NO,1675789717
428,tiarei,-17.5333,-149.3333,26.01,68,24,4.78,PF,1675789717
429,rakke,58.9817,26.2544,-1.46,92,85,3.96,EE,1675789718
430,zhigansk,66.7697,123.3711,-46.57,100,94,1.13,RU,1675789718
431,oriximina,-1.7656,-55.8661,29.14,73,72,0.7,BR,1675789719
432,ushtobe,45.2514,77.9838,-3.55,95,59,2.69,KZ,1675789719
433,harindanga,22.0383,88.3214,21.82,75,0,4.64,IN,1675789720
434,tabou,4.423,-7.3528,28.21,74,89,4.62,CI,1675789720
435,spirit river,55.7833,-118.8361,-2.97,75,65,3.05,CA,1675789721
436,itupiranga,-5.1347,-49.3267,29.13,69,85,1.83,BR,1675789722
437,valparaiso,-33.0393,-71.6273,23.33,74,100,3.6,CL,1675789589
438,el centro,32.792,-115.563,16.99,30,0,6.69,US,1675789722
439,palmer,42.1584,-72.3287,3.61,31,29,0.89,US,1675789723
440,yatou,37.15,122.3833,0.29,64,23,3.06,CN,1675789723
441,mariental,-24.6333,17.9667,26.62,52,65,5.66,NA,1675789724
442,mandalgovi,45.7625,106.2708,-14.76,94,11,2.35,MN,1675789724
443,maraa,-1.8333,-65.3667,28.8,73,94,1.88,BR,1675789674
444,jian,27.1172,114.9793,10.6,93,100,1.57,CN,1675789725
445,kandrian,-6.2167,149.55,25.61,90,100,5.78,PG,1675789725
446,mantenopolis,-18.8625,-41.1228,29.58,59,61,2.4,BR,1675789725
447,novobirilyussy,56.9514,90.6661,-8.52,96,100,2.77,RU,1675789726
448,monrovia,6.3005,-10.7969,28.87,75,50,4.97,LR,1675789726
449,lasa,46.6166,10.7002,-1.84,83,2,2.42,IT,1675789727
450,port blair,11.6667,92.75,25.75,75,13,4.1,IN,1675789727
451,humberto de campos,-2.5983,-43.4611,28.41,74,100,3.06,BR,1675789727
452,pangoa,-12.1167,-73.0,29.18,51,92,1.46,PE,1675789728
453,vanimo,-2.6741,141.3028,24.74,96,100,3.63,PG,1675789728
454,belyy yar,53.6039,91.3903,-16.75,85,100,1.0,RU,1675789728
455,marawi,7.9986,124.2928,19.41,93,100,0.61,PH,1675789729
456,fernie,49.5,-115.0687,0.68,97,100,2.85,CA,1675789610
457,san cristobal,7.7669,-72.225,28.21,41,42,3.47,VE,1675789729
458,jati,24.3539,68.2671,22.91,37,17,3.57,PK,1675789730
459,sao gabriel da cachoeira,-0.1303,-67.0892,30.22,67,91,0.72,BR,1675789730
460,tateyama,34.9833,139.8667,10.05,83,100,6.91,JP,1675789730
461,tepexpan,18.7458,-97.1544,18.92,38,0,0.52,MX,1675789731
462,banda aceh,5.5577,95.3222,25.19,87,91,2.13,ID,1675789731
463,kavieng,-2.5744,150.7967,26.42,82,100,2.07,PG,1675789620
464,alvaraes,-3.2208,-64.8042,29.93,73,57,1.78,BR,1675789732
465,nardaran,40.5561,50.0056,2.8,87,100,10.29,AZ,1675789732
466,villa carlos paz,-31.4241,-64.4978,36.7,31,0,3.49,AR,1675789732
467,verkhnechusovskiye gorodki,58.1671,57.1086,-24.99,100,60,1.0,RU,1675789733
468,araure,9.5601,-69.2148,32.0,40,96,2.41,VE,1675789734
469,friesoythe,53.0167,7.85,1.64,68,3,1.92,DE,1675789734
470,dakar,14.6937,-17.4441,25.49,56,0,10.8,SN,1675789544
471,clinton,42.587,-82.9199,9.97,75,99,2.24,US,1675789715
472,kieta,-6.2167,155.6333,26.14,86,99,1.83,PG,1675789736
473,billings,45.7833,-108.5007,6.39,54,40,7.2,US,1675789693
474,coahuayana,18.7333,-103.6833,28.67,49,24,1.84,MX,1675789736
475,dodge city,37.7528,-100.0171,8.47,58,0,2.57,US,1675789741
476,dusti,37.3481,68.664,9.36,37,18,2.45,TJ,1675789741
477,pathein,16.7833,94.7333,20.07,66,24,2.89,MM,1675789742
478,abong mbang,3.9833,13.1833,28.81,20,19,1.09,CM,1675789742
479,neiafu,-18.65,-173.9833,24.38,88,75,4.12,TO,1675789744
480,kayan,16.9056,96.5631,25.08,39,27,3.36,MM,1675789745
481,fairbanks,64.8378,-147.7164,-14.32,82,100,2.06,US,1675789622
482,te anau,-45.4167,167.7167,9.32,82,92,2.56,NZ,1675789564
483,lokosovo,61.1333,74.8167,-23.12,100,72,2.58,RU,1675789746
484,melilla,35.2937,-2.9383,14.21,77,75,5.14,ES,1675789746
485,kushima,31.4583,131.2333,11.39,92,78,1.2,JP,1675789750
486,praia,14.9215,-23.5087,23.3,49,40,12.35,CV,1675789751
487,bozeman,45.6796,-111.0386,5.68,60,0,1.54,US,1675789752
488,nuuk,64.1835,-51.7216,-11.66,56,75,5.14,GL,1675789752
489,banapur,19.7833,85.1833,21.79,82,1,2.87,IN,1675789755
490,enshi,30.3,109.4833,8.73,95,100,0.27,CN,1675789757
491,olafsvik,64.8945,-23.7142,-1.93,53,100,18.79,IS,1675789759
492,santa maria da vitoria,-13.3947,-44.1886,32.61,34,55,2.01,BR,1675789760
493,mecca,21.4267,39.8261,20.6,49,100,6.66,SA,1675789609
494,guerrero negro,27.9769,-114.0611,17.0,28,6,3.42,MX,1675789761
495,nemuro,43.3236,145.575,-4.12,90,94,2.9,JP,1675789761
496,moron,-34.6534,-58.6198,35.53,33,28,2.36,AR,1675789732
497,bonthe,7.5264,-12.505,28.62,57,69,5.26,SL,1675789762
498,menomonie,44.8755,-91.9193,2.05,93,100,5.14,US,1675789541
499,lamar,33.6668,-95.5836,15.91,91,100,0.0,US,1675789764
500,ngunguru,-35.6167,174.5,16.6,79,71,3.38,NZ,1675789741
501,ouadda,8.0777,22.4007,29.27,11,4,3.1,CF,1675789615
502,ketchikan,55.3422,-131.6461,3.99,93,0,0.0,US,1675789765
503,waingapu,-9.6567,120.2641,26.04,90,99,4.55,ID,1675789769
504,hami,42.8,93.45,0.56,47,100,1.23,CN,1675789769
505,macas,-2.3167,-78.1167,25.86,61,75,2.57,EC,1675789770
506,sovkhoznyy,45.2946,38.1138,-3.53,92,100,8.79,RU,1675789771
507,meadow lake,34.8014,-106.5436,3.56,70,100,4.91,US,1675789771
508,georgiyevka,43.0369,74.7114,-2.98,100,75,2.0,KZ,1675789772
509,alenquer,-1.9417,-54.7383,28.24,75,79,1.7,BR,1675789477
510,belaya gora,68.5333,146.4167,-41.61,100,99,0.56,RU,1675789774
511,qujing,25.4833,103.7833,7.49,44,0,2.79,CN,1675789780
512,san patricio,28.017,-97.5169,25.97,75,100,8.21,US,1675789679
513,zachary,30.6485,-91.1565,23.18,85,0,2.57,US,1675789531
514,phangnga,8.4509,98.5298,26.02,87,100,1.49,TH,1675789781
515,labuan,5.2767,115.2417,26.46,79,84,3.16,MY,1675789781
516,phetchaburi,12.9667,99.5833,23.21,81,5,1.17,TH,1675789781
517,vazante,-17.9869,-46.9078,29.17,55,92,1.97,BR,1675789782
518,dzhida,50.6772,106.1806,-24.22,100,67,1.55,RU,1675789783
519,lubsko,51.7847,14.972,-1.69,80,21,1.6,PL,1675789783
520,cockburn town,21.4612,-71.1419,25.12,76,0,8.61,TC,1675789606
521,dali,25.7,100.1833,6.69,57,0,2.43,CN,1675789784
522,mount gambier,-37.8333,140.7667,12.17,89,78,3.44,AU,1675789785
523,quballat,36.5418,9.6633,11.94,74,80,3.76,TN,1675789785
524,hambantota,6.1241,81.1185,25.34,82,42,6.16,LK,1675789622
525,manta,-0.95,-80.7333,29.88,66,40,4.12,EC,1675789638
526,kyaukse,21.6,96.1333,19.71,30,0,1.9,MM,1675789786
527,novyy urengoy,66.0833,76.6333,-27.1,100,88,2.87,RU,1675789786
528,kampene,-3.6,26.6667,21.02,91,87,1.19,CD,1675789786
529,port lincoln,-34.7333,135.8667,17.67,81,0,6.11,AU,1675789788
530,nome,64.5011,-165.4064,-21.05,91,0,0.0,US,1675789788
531,jiangyou,31.7667,104.7167,10.81,80,100,1.47,CN,1675789790
532,saint johnsbury,44.4192,-72.0151,1.92,54,36,5.14,US,1675789790
533,ulladulla,-35.35,150.4667,18.3,90,100,2.93,AU,1675789792
534,sangar,63.9242,127.4739,-43.56,100,100,0.77,RU,1675789792
535,sankt florian,48.2057,14.3784,-0.79,66,0,1.54,AT,1675789792
536,namibe,-15.1961,12.1522,22.76,71,100,5.27,AO,1675789708
537,zabol,32.25,67.25,3.23,53,53,2.51,AF,1675789607
538,ak-dovurak,51.1833,90.6,-23.5,95,88,0.78,RU,1675789794
539,inhambane,-23.865,35.3833,25.78,84,21,3.43,MZ,1675789794
540,richards bay,-28.783,32.0377,25.9,83,32,4.65,ZA,1675789795
541,alugan,12.2188,125.4808,25.7,81,100,4.94,PH,1675789795
542,winnemucca,40.973,-117.7357,2.47,54,3,1.72,US,1675789780
543,steamboat springs,40.485,-106.8317,-4.82,75,100,0.45,US,1675789796
544,christchurch,-43.5333,172.6333,16.62,77,75,2.57,NZ,1675789592
545,san juan de los morros,9.9115,-67.3538,31.53,38,91,1.99,VE,1675789796
546,bay saint louis,30.3088,-89.33,20.06,88,100,4.12,US,1675789797
547,kaeo,-35.1,173.7833,13.51,94,54,1.62,NZ,1675789790
548,opuwo,-18.0607,13.84,27.67,34,94,7.05,NA,1675789497
549,nacozari,25.3366,-108.2574,19.97,38,100,3.8,MX,1675789797
550,batemans bay,-35.7167,150.1833,19.5,92,100,1.99,AU,1675789798
551,samarai,-10.6167,150.6667,26.39,83,100,5.49,PG,1675789798
552,takoradi,4.8845,-1.7554,27.84,74,23,5.09,GH,1675789799
553,linares,-35.85,-71.6,33.38,14,0,2.07,CL,1675789799
554,xingcheng,40.6167,120.7167,-3.06,49,11,1.84,CN,1675789799
555,sao jose da coroa grande,-8.8978,-35.1478,28.58,59,28,5.31,BR,1675789701
556,chernyshevsk,52.5243,117.0174,-30.57,100,68,1.0,RU,1675789800
